Creating producer thread
Creating consumer thread
Main completed
producer_task started 408980
consumer_task started 408980
$GPVTG,,T,,M,0.598,N,1.107,K,A*20
$GPGGA,065927.00,0123.37087,N,10352.45592,E,1,06,1.69,47.7,M,6.1,M,,*59
$GPGSA,A,3,28,01,17,19,03,06,,,,,,,3.28,1.69,2.82*0D
$GPGSV,4,1,13,01,08,030,36,02,15,229,13,03,30,074,27,06,52,250,22*7C
$GPGSV,4,2,13,07,48,173,10,09,16,155,,13,01,269,,17,24,333,44*70
$GPGSV,4,3,13,19,19,305,14,22,12,057,,23,05,129,,28,38,005,45*75
$GPGSV,4,4,13,30,69,218,12*4F
$GPGLL,0123.37087,N,10352.45592,E,065927.00,A,A*67
$GPRMC,065928.00,A,0127,1.63,41.0,M,6.1,M,,*5D
$GPGSA,A,3,28,01,17,19,22,03,06,,,,,,2.94,1.63,2.45*0A
$GPGSV,4,1,13,01,07,030,34,02,16,230,,03,30,072,25,06,53,253,13*7C
$GPGSV,4,2,13,07,46,172,,09,16,153,,13,01,268,,17,23,334,46*7B
$GPGSV,4,3,13,19,19,307,27,22,11,056,19,23,05,128,,28,39,006,47*7C
$GPGSV,4,4,13,30,68,215,*40
$GPGLL,0123.35584,N,10352.45608,E,070244.00,A,A*69
$GPRMC,070245.00,A,0123.35629,N,10352.45608,E,0.955,183.01,090716,,,A*60
$GPVTG,183.01,T,,M,0.955,N,1.768,K,A*37
$GPGGA,070245.00,0123.35629,N,10352.45608,E,1,07,2.40,41.1,M,6.1,M,,*5B
$GPGSA,A,3,28,01,17,19,22,03,06,,,,,,3.45,2.40,2.48*08
$GPGSV,4,1,13,01,07,030,34,02,16,230,,03,30,072,26,06,53,253,19*75
$GPGSV,4,2,13,07,46,172,,09,16,153,,13,01,268,,17,23,334,46*7B
$GPGSV,4,3,13,19,19,307,27,22,11,056,20,23,05,128,,28,39,006,46*77
$GPGSV,4,4,13,30,68,215,*40
$GPGLL,0123.35629,N,10352.45608,E,070245.00,A,A*6C
$GPRMC,070246.00,A,0123.35600,N,10352.45601,E,0.793,183.85,090716,,,A*69
$GPVTG,183.85,T,,M,0.793,N,1.469,K,A*3D
$GPGGA,070246.00,0123.35600,N,10352.45601,E,1,07,1.63,41.1,M,6.1,M,,*58
$GPGSA,A,3,28,01,17,19,22,03,06,,,,,,2.94,1.63,2.45*0A
$GPGSV,4,1,13,01,07,030,34,02,16,230,,03,30,072,27,06,53,253,21*7F
$GPGSV,4,2,13,07,46,172,,09,16,153,,13,01,268,,17,23,334,46*7B
$GPGSV,4,3,13,19,19,307,27,22,11,056,19,23,05,128,,28,39,006,46*7D
$GPGSV,4,4,13,30,68,215,*40
$GPGLL,0123.35600,N,10352.45601,E,070246.00,A,A*6D
$GPRMC,070247.00,A,0123.35597,N,10352.45597,E,0.410,,090716,,,A*78
$GPVTG,,T,,M,0.410,N,0.759,K,A*2D
$GPGGA,070247.00,0123.35597,N,10352.45597,E,1,07,1.63,41.1,M,6.1,M,,*58
$GPGSA,A,3,28,01,17,19,22,03,06,,,,,,2.94,1.63,2.45*0A
$GPGSV,4,1,13,01,07,030,34,02,16,230,,03,30,072,27,06,53,253,21*7F
$GPGSV,4,2,13,07,46,172,,09,16,153,,13,01,268,,17,23,334,46*7B
$GPGSV,4,3,13,19,19,307,26,22,11,056,19,23,05,128,,28,39,006,46*7C
$GPGSV,4,4,13,30,68,215,*40
$GPGLL,0123.35597,N,10352.45597,E,070247.00,A,A*6D
$GPRMC,070248.00,A,0123.35528,N,10352.45588,E,0.766,185.08,090716,,,A*65
$GPVTG,185.08,T,,M,0.766,N,1.419,K,A*33
$GPGGA,070248.00,0123.35528,N,10352.45588,E,1,07,1.63,41.0,M,6.1,M,,*5C
$GPGSA,A,3,28,01,17,19,22,03,06,,,,,,2.94,1.63,2.45*0A
$GPGSV,4,1,13,01,07,030,34,02,16,230,,03,30,072,27,06,53,253,20*7E
$GPGSV,4,2,13,07,46,172,,09,16,153,,13,01,268,,17,23,334,46*7B
$GPGSV,4,3,13,19,19,307,26,22,11,056,19,23,05,128,,28,39,006,47*7D
$GPGSV,4,4,13,30,68,215,*40
$GPGLL,0123.35528,N,10352.45588,E,070248.00,A,A*68
$GPRMC,070249.00,A,0123.35506,N,10352.45579,E,0.638,,090716,,,A*76
$GPVTG,,T,,M,0.638,N,1.182,K,A*24
$GPGGA,070249.00,0123.35506,N,10352.45579,E,1,07,1.63,41.1,M,6.1,M,,*5E
$GPGSA,A,3,28,01,17,19,22,03,06,,,,,,2.94,1.63,2.45*0A
$GPGSV,4,1,13,01,07,030,33,02,16,230,,03,30,072,27,06,53,253,19*73
$GPGSV,4,2,13,07,46,172,,09,16,153,,13,01,268,,17,23,334,44*79
$GPGSV,4,3,13,19,19,307,27,22,11,056,19,23,05,128,,28,39,006,45*7E
$GPGSV,4,4,13,30,68,215,*40
$GPGLL,0123.35506,N,10352.45579,E,070249.00,A,A*6B
$GPRMC,070250.00,A,0123.35471,N,10352.45570,E,0.923,184.10,090716,,,A*61
$GPVTG,184.10,T,,M,0.923,N,1.710,K,A*3E
$GPGGA,070250.00,0123.35471,N,10352.45570,E,1,07,1.63,41.1,M,6.1,M,,*5E
$GPGSA,A,3,28,01,17,19,22,03,06,,,,,,2.94,1.63,2.45*0A
$GPGSV,4,1,13,01,07,030,33,02,16,230,,03,30,072,27,06,53,253,17*7D
$GPGSV,4,2,13,07,46,172,,09,16,153,,13,01,268,,17,23,334,45*78
$GPGSV,4,3,13,19,19,307,26,22,11,056,18,23,05,128,,28,39,006,45*7E
$GPGSV,4,4,13,30,68,215,*40
$GPGLL,0123.35471,N,10352.45570,E,070250.00,A,A*6B
$GPRMC,070251.00,A,0123.35459,N,10352.45567,E,0.889,182.49,090716,,,A*67
$GPVTG,182.49,T,,M,0.889,N,1.647,K,A*36
$GPGGA,070251.00,0123.35459,N,10352.45567,E,1,07,1.63,41.0,M,6.1,M,,*52
$GPGSA,A,3,28,01,17,19,22,03,06,,,,,,2.94,1.63,2.45*0A
$GPGSV,4,1,13,01,07,030,32,02,16,230,,03,30,072,26,06,53,253,15*7F
$GPGSV,4,2,13,07,46,172,,09,16,153,,13,01,268,,17,23,334,45*78
$GPGSV,4,3,13,19,19,307,26,22,11,056,16,23,05,128,,28,39,006,46*73
$GPGSV,4,4,13,30,68,215,*40
$GPGLL,0123.35459,N,10352.45567,E,070251.00,A,A*66
$GPRMC,070252.00,A,0123.35446,N,10352.45561,E,0.831,,090716,,,A*77
$GPVTG,,T,,M,0.831,N,1.539,K,A*27
$GPGGA,070252.00,0123.35446,N,10352.45561,E,1,07,1.63,41.1,M,6.1,M,,*58
$GPGSA,A,3,28,01,17,19,22,03,06,,,,,,2.94,1.63,2.45*0A
$GPGSV,4,1,13,01,07,030,32,02,16,230,,03,30,072,26,06,53,253,15*7F
$GPGSV,4,2,13,07,46,172,,09,16,153,,13,01,268,,17,23,334,44*79
$GPGSV,4,3,13,19,19,307,26,22,11,056,14,23,05,128,,28,39,006,46*71
$GPGSV,4,4,13,30,68,215,*40
$GPGLL,0123.35446,N,10352.45561,E,070252.00,A,A*6D
$GPRMC,070253.00,A,0123.35417,N,10352.45555,E,0.761,,090716,,,A*7F
$GPVTG,,T,,M,0.761,N,1.410,K,A*27
$GPGGA,070253.00,0123.35417,N,10352.45555,E,1,07,1.63,41.1,M,6.1,M,,*5A
$GPGSA,A,3,28,01,17,19,22,03,06,,,,,,2.94,1.63,2.45*0A
$GPGSV,4,1,13,01,07,030,32,02,16,230,,03,30,072,25,06,53,253,16*7F
$GPGSV,4,2,13,07,46,172,,09,16,153,,13,01,268,,17,23,334,44*79
$GPGSV,4,3,13,19,19,307,27,22,11,056,13,23,05,128,,28,39,006,46*77
$GPGSV,4,4,13,30,68,215,*40
$GPGLL,0123.35417,N,10352.45555,E,070253.00,A,A*6F
$GPRMC,070254.00,A,0123.35376,N,10352.45550,E,0.769,182.61,090716,,,A*67
$GPVTG,182.61,T,,M,0.769,N,1.425,K,A*3B
$GPGGA,070254.00,0123.35376,N,10352.45550,E,1,07,1.63,41.1,M,6.1,M,,*58
$GPGSA,A,3,28,01,17,19,22,03,06,,,,,,2.94,1.63,2.45*0A
$GPGSV,4,1,13,01,07,030,33,02,16,230,,03,30,072,25,06,53,253,16*7E
$GPGSV,4,2,13,07,46,172,,09,16,153,,13,01,268,,17,23,334,46*7B
$GPGSV,4,3,13,19,19,307,28,22,11,056,10,23,05,128,,28,39,006,47*7A
$GPGSV,4,4,13,30,68,215,*40
$GPGLL,0123.35376,N,10352.45550,E,070254.00,A,A*6D
$GPRMC,070255.00,A,0123.35356,N,10352.45550,E,0.534,,090716,,,A*7C
$GPVTG,,T,,M,0.534,N,0.990,K,A*21
$GPGGA,070255.00,0123.35356,N,10352.45550,E,1,06,1.73,41.1,M,6.1,M,,*5B
$GPGSA,A,3,28,01,17,19,03,06,,,,,,,3.19,1.73,2.68*00
$GPGSV,4,1,13,01,07,030,33,02,16,230,,03,30,072,23,06,53,253,18*76
$GPGSV,4,2,13,07,46,172,,09,16,153,,13,01,268,,17,23,334,45*78
$GPGSV,4,3,13,19,19,307,28,22,11,056,08,23,05,128,,28,39,006,47*73
$GPGSV,4,4,13,30,68,215,*40
$GPGLL,0123.35356,N,10352.45550,E,070255.00,A,A*6E
$GPRMC,070256.00,A,0123.35326,N,10352.45550,E,0.378,,090716,,,A*76
$GPVTG,,T,,M,0.378,N,0.700,K,A*28
$GPGGA,070256.00,0123.35326,N,10352.45550,E,1,06,1.73,41.1,M,6.1,M,,*5F
$GPGSA,A,3,28,01,17,19,03,06,,,,,,,3.19,1.73,2.68*00
$GPGSV,4,1,13,01,07,030,33,02,16,230,,03,30,072,23,06,53,253,20*7D
$GPGSV,4,2,13,07,46,172,,09,16,153,,13,01,268,,17,23,334,45*78
$GPGSV,4,3,13,19,19,307,27,22,11,056,08,23,05,128,,28,39,006,47*7C
$GPGSV,4,4,13,30,68,215,*40
$GPGLL,0123.35326,N,10352.45550,E,070256.00,A,A*6A
producer_task done
consumer_task done
